,city,city_id,cloudiness,humidity,lat,lon,temp,windspeed
0,saint-pierre,2995603,0,93,48.95,4.24,50.0,12.75
1,nikolskoye,546105,20,63,59.7,30.79,30.2,4.47
2,busselton,2075265,36,100,-33.64,115.35,64.52,16.26
3,mataura,6201424,92,83,-46.19,168.86,59.39,25.55
4,dunedin,2191562,0,43,-45.87,170.5,67.85,21.3
5,thompson,6165406,75,31,55.74,-97.86,17.6,18.34
6,esperance,3573739,20,65,10.24,-61.45,82.4,18.34
7,comodoro rivadavia,3860443,90,100,-45.87,-67.48,55.4,5.82
8,mansa,1263623,0,38,23.43,72.66,77.0,5.97
9,jamestown,2069194,0,57,-33.21,138.6,64.07,4.63
10,sao filipe,3374210,32,100,14.9,-24.5,69.11,13.58
11,guamo,3170647,40,81,43.81,10.51,53.6,9.17
12,clyde river,5924351,1,77,70.47,-68.59,6.8,21.92
13,hermanus,3366880,12,95,-34.42,19.24,54.26,3.29
14,port alfred,964432,36,98,-33.59,26.89,68.21,5.19
16,severo-kurilsk,2121385,64,94,50.68,156.12,32.75,10.45
17,cape town,3369157,0,82,-33.93,18.42,64.4,9.17
19,khatanga,2022572,36,57,71.98,102.47,-19.55,2.95
20,bambous virieux,1106677,75,88,-20.34,57.76,80.6,8.05
21,talnakh,1490256,64,75,69.49,88.39,-11.45,9.33
22,hithadhoo,1282256,80,100,-0.6,73.08,82.16,2.84
23,avarua,4035715,75,79,-21.21,-159.78,84.2,5.82
24,dikson,1507390,12,73,73.51,80.55,-10.55,10.67
25,sergiyevsk,486626,68,91,53.94,51.16,35.09,14.36
26,albany,5106834,90,86,42.65,-73.75,39.2,5.82
27,carnot,2387495,12,77,4.94,15.87,72.26,2.95
28,manama,292953,0,60,25.33,56.02,86.0,6.93
29,ushuaia,3833367,20,60,-54.81,-68.31,42.8,6.93
31,rikitea,4030556,88,100,-23.12,-134.97,79.91,11.12
35,atuona,4020109,32,100,-9.8,-139.03,81.89,14.03
36,beirut,276781,20,82,33.9,35.48,64.4,6.93
38,abilene,4669635,1,32,32.45,-99.73,68.0,26.4
42,los llanos de aridane,2514651,36,72,28.66,-17.92,64.4,6.93
43,nishihara,1850144,1,77,35.74,139.53,60.8,4.63
44,saint-philippe,6138908,90,52,45.36,-73.48,42.8,10.29
45,port keats,2063039,0,75,-14.25,129.55,85.94,12.12
47,thinadhoo,1337610,76,100,0.53,72.93,84.23,3.62
48,vardo,4372777,40,93,39.62,-77.74,51.8,8.05
50,vaini,1273574,12,92,15.34,74.49,65.51,2.06
51,port elizabeth,4501427,90,93,39.31,-74.98,48.2,4.7
52,binga,895057,0,98,-17.62,27.34,69.83,1.61
53,new norfolk,2155415,0,58,-42.78,147.06,59.0,8.05
54,huarmey,3939168,36,66,-10.07,-78.15,70.82,3.4
55,katsuura,1865309,20,87,33.93,134.5,57.2,5.82
57,emborion,736324,0,89,40.48,21.55,38.06,1.95
58,rabo de peixe,3372745,40,76,37.8,-25.58,55.4,5.82
59,hilo,5855927,75,69,19.71,-155.08,82.4,6.93
60,san quintin,1688687,20,88,17.54,120.52,71.6,2.24
61,tsogni,2400547,100,100,-2.79,10.1,80.99,1.16
63,virginia beach,4791259,75,72,36.85,-75.98,80.6,5.82
64,peace river,6100069,75,48,56.23,-117.29,17.6,10.29
65,genhe,2037252,0,38,50.78,121.52,16.1,8.77
67,san patricio,3437029,8,73,-26.98,-56.83,72.98,4.07
68,juneau,5554072,75,34,58.3,-134.42,37.4,11.41
70,san isidro,1689639,88,100,16.74,121.63,72.17,2.73
71,hobart,2163355,0,58,-42.88,147.33,59.0,8.05
72,upata,3625710,80,86,8.02,-62.41,74.78,6.31
74,lata,1253628,0,95,30.78,78.62,43.46,2.62
75,yellowknife,6185377,20,42,62.45,-114.38,8.6,13.87
78,povenets,505820,88,81,62.85,34.83,28.7,15.26
79,mount gambier,2156643,0,77,-37.83,140.78,61.01,3.4
80,punta arenas,3874787,75,65,-53.16,-70.91,44.6,4.7
81,cidreira,3466165,88,94,-30.17,-50.22,69.02,2.84
82,faanui,4034551,44,100,-16.48,-151.75,81.53,9.78
83,puerto ayora,3652764,20,69,-0.74,-90.35,82.4,9.17
84,saskylakh,2017155,0,44,71.97,114.09,-14.51,6.53
85,murray,5778755,1,21,40.67,-111.89,51.8,8.05
87,chokurdakh,2126123,0,90,70.62,147.9,24.11,3.29
91,anahuac,4670707,75,65,29.77,-94.68,82.4,11.41
93,antofagasta,3899539,20,72,-23.65,-70.4,66.2,10.29
95,bredasdorp,1015776,88,97,-34.53,20.04,66.68,13.02
98,arraial do cabo,3471451,40,78,-22.97,-42.02,86.0,2.24
100,ostrovnoy,556268,80,93,68.05,39.51,28.07,3.51
101,enid,4535961,75,27,36.4,-97.88,53.6,25.28
105,ancud,3899695,100,97,-41.87,-73.83,60.83,15.14
108,half moon bay,5354943,1,82,37.46,-122.43,78.8,11.41
109,oranjestad,3577154,40,78,12.52,-70.03,82.4,17.22
114,lavrentiya,4031637,0,98,65.58,-170.99,22.31,23.98
115,luderitz,3355672,0,72,-26.65,15.16,66.2,3.36
117,sao joao da barra,3448903,40,94,-21.64,-41.05,75.2,4.7
118,galveston,4920577,90,93,40.58,-86.19,66.2,18.34
122,tagab,1123424,75,76,34.85,69.65,55.4,3.36
123,shchors,694273,48,89,51.82,31.95,33.11,10.0
124,upernavik,3418910,88,99,72.79,-56.15,17.45,8.99
125,vangaindrano,1054329,92,100,-23.35,47.6,68.39,3.18
126,bluff,2175403,76,57,-23.58,149.07,76.85,19.28
127,bilibino,2126682,0,89,68.06,166.44,35.81,3.06
128,georgetown,3378644,20,78,6.8,-58.16,80.6,13.87
129,castro,3896218,92,95,-42.48,-73.76,60.11,13.58
131,kupang,2057087,0,100,-10.16,123.6,81.08,4.41
134,coremas,3401725,24,93,-7.02,-37.95,72.17,4.41
135,butaritari,2110227,32,100,3.07,172.79,80.54,1.39
137,mnogovershinnyy,2019935,80,81,53.94,139.92,24.38,8.77
138,vila franca do campo,3372472,40,76,37.72,-25.43,55.4,5.82
139,rocky mount,4488762,1,60,35.94,-77.8,78.8,5.82
140,torbay,6167817,75,73,47.66,-52.73,26.6,4.7
143,burgeo,5911440,0,100,47.61,-57.61,30.5,11.45
145,sorland,3137469,0,100,67.67,12.69,33.56,13.13
146,iquique,3887127,0,53,-20.22,-70.14,73.4,17.22
149,tasiilaq,3424607,88,73,65.61,-37.64,19.4,20.8
150,paamiut,3421193,44,89,61.99,-49.67,31.76,4.41
153,qaanaaq,3831208,0,81,77.48,-69.36,-1.91,6.87
154,dudinka,1507116,68,72,69.41,86.18,-10.46,14.81
156,pevek,2122090,0,80,69.7,170.27,33.29,3.74
159,barrow,3833859,0,51,-38.31,-60.23,65.33,9.78
161,iqaluit,5983720,90,79,63.75,-68.52,26.6,9.17
164,victoria,1733782,75,94,5.28,115.24,78.8,2.84
166,palmer,2067070,0,82,-34.85,139.16,55.4,4.07
167,arman,2127060,75,80,59.7,150.17,33.8,22.37
168,norman wells,6089245,75,51,65.28,-126.83,10.4,9.17
170,san rafael,3836669,0,42,-34.61,-68.33,66.23,4.97
173,agua branca,3408221,36,94,-5.89,-42.63,73.43,4.18
174,tuktoyaktuk,6170031,75,77,69.44,-133.03,-0.41,3.36
175,narsaq,3421719,68,55,60.91,-46.05,37.4,4.7
176,san cristobal,3652462,75,63,-0.39,-78.55,60.8,10.29
177,souillac,3026644,0,81,45.6,-0.6,53.6,13.87
178,vestmannaeyjar,3412093,0,100,63.44,-20.27,31.31,15.48
179,sherpur,1337248,0,87,25.02,90.01,67.58,3.74
181,jalu,86049,0,66,29.03,21.55,55.88,7.2
184,bonthe,2409914,0,88,7.53,-12.5,79.37,5.08
185,giyani,1001860,80,87,-23.32,30.73,64.97,2.84
186,chuy,3443061,20,92,-33.69,-53.46,65.87,6.98
187,zyryanka,2119283,12,86,65.73,150.89,33.65,2.62
188,orocue,3673536,68,85,4.79,-71.34,78.83,4.29
191,riyadh,108410,75,33,24.63,46.72,75.2,3.36
193,yar-sale,1486321,92,86,66.83,70.83,12.59,15.82
194,khasan,2039557,0,68,42.43,130.64,40.31,6.53
196,saint george,262462,0,87,39.45,22.34,46.4,4.7
197,harnosand,2707684,90,73,62.63,17.94,26.6,2.24
200,kruisfontein,986717,12,92,-34.0,24.73,64.79,11.01
201,kaitangata,2208248,44,62,-46.28,169.85,62.9,31.92
202,charters towers,2171722,100,87,-20.07,146.27,70.91,15.14
204,klaksvik,2618795,12,100,62.23,-6.59,24.8,4.41
208,gat,2249901,44,65,14.69,-16.54,77.0,9.17
210,cockburn town,3576994,8,98,21.46,-71.14,77.12,15.14
214,tarauaca,3661980,75,83,-8.16,-70.77,80.6,5.82
218,mar del plata,3863379,92,99,-46.43,-67.52,55.43,3.85
225,makinsk,1521230,0,62,52.63,70.42,9.26,4.63
227,fortuna,2517679,0,93,38.18,-1.13,60.8,4.7
228,port blair,1259385,0,100,11.67,92.75,83.24,3.18
229,saldanha,2737599,92,100,41.42,-6.55,44.63,12.46
232,ribeira grande,3372707,56,100,38.52,-28.7,60.83,16.04
233,geraldton,5960603,40,22,49.72,-86.95,21.2,5.82
234,mahebourg,934322,75,88,-20.41,57.7,80.6,8.05
236,simoes,3387625,80,65,-7.6,-40.82,78.38,4.63
242,port alberni,6111632,90,61,49.24,-124.81,48.2,13.87
244,camacha,2270385,20,67,33.08,-16.33,62.6,10.29
249,coquimbo,3893629,0,77,-29.95,-71.34,60.8,9.17
253,kutum,371745,0,21,14.2,24.66,58.22,9.44
255,belmonte,8010472,92,97,40.36,-7.35,46.16,13.35
261,santa isabel do rio negro,3662489,48,97,-0.41,-65.02,75.23,2.95
262,kapaa,5848280,90,65,22.08,-159.32,78.8,14.99
267,jacqueville,2290582,20,88,5.21,-4.42,82.4,5.82
272,inta,1505579,92,96,66.04,60.13,35.0,6.64
273,lincoln,5072006,1,51,40.8,-96.67,35.6,28.86
274,tam ky,1567148,20,94,15.57,108.48,68.0,4.63
275,touros,3386213,92,84,-5.2,-35.46,81.53,12.24
277,lebu,344979,75,63,8.96,38.73,62.6,11.41
281,kaiu,589115,0,85,59.01,25.06,21.2,2.24
288,mount isa,2065594,0,44,-20.73,139.49,78.8,8.05
291,mehamn,778707,75,86,71.03,27.85,32.0,23.04
292,broome,2656067,12,87,52.47,1.45,48.2,8.05
293,igarka,1505991,68,72,67.47,86.57,-16.22,7.2
300,saint-augustin,3031582,76,71,44.83,-0.61,60.8,10.29
301,ler,3146125,0,51,63.2,10.3,35.6,17.22
303,luena,3347719,24,94,-11.78,19.91,60.56,2.62
304,wairoa,2206808,0,64,-39.04,177.43,74.33,7.2
306,biloela,2175819,100,67,-24.4,150.51,72.62,14.36
310,ondjiva,3346821,92,98,-17.07,15.73,64.79,3.85
311,goya,3433715,76,86,-29.14,-59.27,72.26,4.07
313,taoudenni,2450173,0,20,22.68,-3.98,71.54,9.33
316,cap malheureux,934649,75,88,-19.98,57.61,80.6,8.05
318,broken hill,2173911,0,48,-31.97,141.45,68.75,9.66
322,vao,588365,0,77,59.1,26.19,19.25,2.51
325,rio gallegos,3838859,75,75,-51.62,-69.22,46.4,3.36
326,itarema,3393692,92,92,-2.92,-39.92,78.02,6.76
329,ahipara,2194098,20,79,-35.17,173.16,70.55,6.2
330,aparecida do taboado,3471940,12,91,-20.08,-51.1,74.78,5.75
331,kodiak,4407665,90,80,39.95,-94.76,35.6,26.4
332,banda aceh,1215502,20,99,5.56,95.32,75.05,2.62
336,leh,1264976,80,90,34.16,77.58,13.58,1.61
337,rawson,3839307,76,41,-43.3,-65.11,71.54,4.41
339,steinbach,6156102,40,41,49.53,-96.69,23.0,8.05
345,lagoa,2267254,20,87,37.14,-8.45,59.0,13.87
347,ust-nera,2120048,56,83,64.57,143.24,21.86,2.62
352,barra do garcas,3470709,75,94,-15.89,-52.26,73.4,2.24
355,north bend,5742974,90,62,43.41,-124.22,51.8,9.17
356,lasa,146639,0,62,34.92,32.53,59.0,10.29
357,komsomolskiy,1486910,88,83,67.55,63.78,15.65,12.46
358,sorong,1626542,48,100,-0.86,131.25,79.82,2.51
360,east london,1006984,92,100,-33.02,27.91,72.71,4.18
361,port lincoln,2063036,0,87,-34.72,135.86,66.77,5.64
364,lompoc,5367788,20,72,34.64,-120.46,68.0,11.41
366,mujiayingzi,2035707,0,70,42.12,118.78,25.73,3.74
369,kamogawa,2112297,20,88,35.13,140.08,62.6,1.12
372,labytnangi,1500933,92,72,66.66,66.39,16.28,8.43
373,mahibadhoo,1337605,64,100,3.78,72.97,85.22,4.97
374,tiksi,2015306,48,76,71.64,128.87,5.39,5.41
375,lakes entrance,2160735,0,92,-37.88,147.99,62.81,1.16
383,denpasar,1645528,0,97,-8.65,115.22,75.86,1.61
384,airai,1651810,0,72,-8.93,125.41,77.39,2.06
387,marabba,370510,0,53,12.35,32.18,71.81,2.84
388,portland,5746545,90,50,45.52,-122.67,51.8,6.93
390,ugoofaaru,1337619,32,100,5.67,73.0,84.23,6.53
394,alta floresta,6316343,20,88,-9.87,-56.08,77.0,2.51
396,meulaboh,1214488,64,100,4.14,96.13,78.56,5.64
398,tsiroanomandidy,1054463,20,89,-18.77,46.05,61.19,5.53
401,seoul,1835848,90,76,37.57,126.98,53.6,10.29
402,pisco,3932145,0,64,-13.71,-76.2,75.2,21.92
403,lerici,3174856,40,81,44.07,9.91,53.6,9.17
405,jaciara,3460355,12,91,-15.95,-54.98,74.15,2.73
407,tahe,2034615,0,33,52.34,124.71,17.27,12.24
408,galle,4695361,1,69,29.74,-97.91,82.4,7.43
409,skibbereen,2961459,75,100,51.55,-9.27,44.6,6.93
415,cumana,3644768,24,78,10.46,-64.17,73.52,3.96
423,havelock,4470244,1,83,34.88,-76.9,78.8,16.11
424,cayenne,3382160,20,74,4.94,-52.33,80.6,4.7
425,opuwo,3354077,24,100,-18.06,13.84,59.66,3.74
426,grand gaube,934479,75,88,-20.01,57.66,80.6,8.05
427,haines junction,5969025,68,73,60.75,-137.51,13.13,2.95
430,provideniya,4031574,0,100,64.42,-173.23,32.0,13.42
431,ruiz,3988361,5,24,21.95,-105.15,82.4,13.87
434,marovoay,1059507,40,88,-16.11,46.64,80.6,2.24
436,xining,1788852,12,75,36.62,101.77,28.16,2.06
440,methoni,257122,0,87,36.82,21.7,46.4,4.7
441,senneterre,6144195,75,58,48.39,-77.24,24.8,11.41
442,beyneu,610298,8,77,45.32,55.19,39.23,7.76
446,bethel,5880568,1,58,60.79,-161.76,26.6,24.16
449,yulara,6355222,0,32,-25.24,130.99,66.2,6.93
450,yerbogachen,2012956,20,70,61.28,108.01,8.99,2.62
453,carutapera,3402648,8,95,-1.2,-46.02,77.93,5.08
459,okha,2122614,80,100,53.59,142.95,26.0,13.13
460,anadyr,2127202,0,85,64.73,177.51,17.6,6.71
463,honiara,2108502,75,94,-9.43,159.96,78.8,4.7
468,lake charles,4330236,90,74,30.23,-93.22,80.6,13.87
469,tessalit,2449893,0,23,20.2,1.01,65.06,3.4
471,ilulissat,3423146,20,78,69.22,-51.1,15.8,5.82
472,dingle,1714733,8,99,11.0,122.67,76.58,9.1
475,lalmohan,1185251,20,88,22.34,90.74,73.79,2.84
480,adrar,2508813,0,12,27.87,-0.29,80.6,9.17
484,konstancin-jeziorna,768216,0,86,52.08,21.12,41.0,2.24
488,hay river,5972762,40,60,60.82,-115.79,8.6,11.41
498,okhotsk,2122605,88,80,59.36,143.24,32.57,16.26
499,pangnirtung,6096551,75,63,66.15,-65.72,28.4,8.05
502,tiarei,4033356,75,62,-17.53,-149.33,87.8,3.36
507,mildura,2157698,0,73,-34.18,142.16,62.99,5.64
512,bay roberts,5895424,75,73,47.58,-53.28,26.6,4.7
515,wanaka,2184707,0,43,-44.7,169.14,60.56,12.01
517,zhangjiakou,2033196,92,97,40.77,114.88,29.6,9.44
520,chifeng,2038067,0,70,42.27,118.96,25.73,3.74
521,tobolsk,1489530,88,91,58.2,68.25,29.42,10.56
522,cockenzie,2652681,90,100,55.97,-2.97,37.4,9.17
523,ponta do sol,3453439,0,92,-20.63,-46.0,65.78,2.62
524,baykit,1510689,64,77,61.68,96.39,6.38,8.1
525,valparaiso,4927537,90,100,41.47,-87.06,48.2,5.82
529,auki,2339937,0,49,12.18,6.51,68.03,2.84
534,la colorada,3628952,75,78,7.55,-72.32,77.0,2.24
535,gigmoto,1712961,64,100,13.78,124.39,79.37,7.76
538,panalingaan,1695736,0,83,8.78,117.42,81.08,2.95
541,longyearbyen,2729907,0,55,78.22,15.63,8.6,17.22
542,xuddur,49747,88,96,4.12,43.89,69.47,2.73
543,flinders,6255012,20,100,-34.58,150.85,59.0,3.36
545,jabinyanah,2470260,20,77,35.03,10.91,62.6,6.93
546,jonkoping,2702979,75,95,57.78,14.16,33.8,11.41
547,nouadhibou,2377457,24,72,20.93,-17.03,66.2,18.34
550,nantucket,4944903,90,100,41.28,-70.1,39.2,19.46
551,sao borja,3449340,0,97,-28.66,-56.0,64.52,1.16
553,price,5545269,1,5,39.6,-110.81,50.0,5.82
554,grindavik,3416888,40,74,63.84,-22.43,30.2,14.99
555,namwala,901766,0,81,-15.75,26.45,68.21,7.76
557,wenling,1791464,92,97,28.38,121.38,63.44,1.61
563,yerky,701075,44,90,49.93,33.53,35.09,9.78
564,dafeng,1813088,92,100,33.2,120.46,49.94,24.76
567,san policarpo,1688696,100,100,12.18,125.51,79.37,8.1
571,isangel,2136825,36,100,-19.55,169.27,80.09,15.14
572,valladolid,3106672,76,91,41.65,-4.73,46.16,19.62
575,camapua,3468020,0,91,-19.53,-54.04,68.75,2.84
578,chake chake,160677,80,100,-5.25,39.77,79.19,8.77
581,chapais,5919850,1,40,49.78,-74.86,14.0,4.7
582,mangaratiba,3457991,90,94,-22.96,-44.04,80.6,13.87
585,castries,3028258,90,87,43.68,3.99,57.2,21.92
587,vila velha,6320062,0,78,-3.71,-38.6,82.4,4.7
592,challans,3027513,90,87,46.85,-1.88,53.6,6.93
593,inhambane,1045114,80,100,-23.87,35.38,76.4,5.75
594,san vicente,3583178,20,58,13.64,-88.78,86.0,8.05
597,biggar,2655692,90,100,55.62,-3.52,39.2,9.17
600,udachnyy,2014624,0,61,66.42,112.4,0.44,2.39
602,waddan,2209055,92,27,29.16,16.14,62.9,8.55
603,tadine,2138285,80,93,-21.55,167.88,80.18,18.5
605,sioux lookout,6148373,40,24,50.1,-91.92,19.4,6.93
608,porto velho,3662762,75,83,-8.75,-63.87,78.8,1.12
612,reconquista,3429594,76,86,-29.14,-59.64,72.26,4.07
615,camopi,3382226,88,98,3.17,-52.33,74.51,1.39
617,huangnihe,2036734,0,45,43.56,128.02,29.51,4.97
623,del rio,5520076,1,40,29.36,-100.9,87.8,3.4
624,perevolotskiy,511291,20,91,51.88,54.19,32.03,13.24
625,terryville,4743432,90,69,29.19,-97.07,80.6,11.41
626,constitucion,4011743,75,10,23.99,-104.67,78.8,21.92
628,cabo san lucas,3985710,5,47,22.89,-109.91,80.6,6.93
630,severnoye,496381,0,92,54.09,52.54,34.1,14.58
638,general roca,3855065,0,49,-39.03,-67.58,73.4,3.36
642,kirakira,2178753,88,100,-10.46,161.92,81.35,10.22
643,gushikawa,1863495,40,77,26.35,127.87,69.8,5.82
648,woodward,4556050,1,12,36.43,-99.39,53.6,27.51
651,ulladulla,2145554,20,100,-35.36,150.48,59.0,3.36
655,kahului,5847411,40,74,20.89,-156.47,82.4,21.92
657,axim,2303611,0,98,4.87,-2.24,82.34,9.33
660,gambela,337405,76,89,8.25,34.59,64.25,3.85
662,bathsheba,3374083,40,74,13.22,-59.52,78.8,14.99
663,quetta,1167528,12,77,30.19,67.02,48.32,0.6
675,sakaraha,1057095,32,95,-22.91,44.53,65.96,2.62
676,saint anthony,5606187,1,22,43.97,-111.68,44.6,17.22
679,hambantota,1244926,0,100,6.12,81.12,78.65,7.31
680,mitu,117392,32,89,36.2,46.09,35.72,2.17
681,blagoveshchensk,2026609,0,28,50.29,127.53,17.6,13.42
683,turayf,101312,75,37,31.68,38.65,68.0,11.41
689,codrington,2160063,92,79,-28.95,153.24,70.82,5.97
690,aksu,1524298,0,100,52.04,76.93,23.0,2.24
693,curaca,3401331,20,60,-8.99,-39.91,82.43,7.09
696,dongsheng,1788268,92,94,29.72,112.52,57.41,17.05
699,beloha,1067565,0,79,-25.17,45.06,74.87,13.47
701,sao jose da coroa grande,3388456,92,95,-8.9,-35.15,77.03,5.3
704,khuzhir,2022143,0,76,53.19,107.35,16.37,6.08
705,tosya,738662,0,87,41.02,34.04,26.27,2.62
707,gibara,3558315,20,58,21.11,-76.13,84.2,16.11
710,cunha,3465010,90,78,-23.08,-44.96,71.6,2.24
711,srisailam,1255621,0,86,16.07,78.87,64.7,2.39
712,ritchie,961226,92,72,-29.03,24.6,68.0,6.93
714,bontang,1648186,92,100,0.12,117.47,73.97,7.2
717,kavaratti,1267390,32,100,10.57,72.64,83.24,6.31
721,mosquera,3674292,40,67,4.71,-74.23,62.6,6.93
723,college,5859699,1,41,64.86,-147.8,23.0,13.87
725,fresnillo,4006163,20,11,23.17,-102.87,80.6,25.28
728,ngunguru,2186111,0,100,-35.62,174.5,68.84,5.64
733,minab,123941,0,83,27.15,57.07,71.6,4.7
742,ceyhan,318675,0,30,37.03,35.82,59.0,14.99
743,verkhoyansk,2013465,80,79,67.55,133.39,15.2,5.75
745,arlit,2447513,0,31,18.74,7.39,74.87,4.85
749,sainte-maxime,6445060,90,87,43.31,6.64,57.2,11.41
750,henties bay,3356832,48,95,-22.12,14.28,66.5,3.85
753,coos bay,5720495,90,62,43.37,-124.22,51.8,9.17
754,tautira,4033557,75,62,-17.73,-149.15,87.8,3.36
762,bonavista,5905393,0,94,48.65,-53.11,23.03,23.53
765,ajaccio,6452235,75,87,41.93,8.74,59.0,3.36
771,am timan,245338,20,22,11.04,20.28,73.88,9.1
772,puerto del rosario,2512186,20,72,28.5,-13.86,64.4,12.75
775,kieta,2094027,32,94,-6.22,155.63,83.96,8.43
777,roma,6539761,0,55,41.89,12.48,55.4,6.93
779,saint-georges,6295855,92,76,46.12,-70.67,35.45,2.62
787,sidi ali,2487130,0,90,36.1,0.42,51.47,3.06
795,vytegra,469960,32,76,61.01,36.45,26.45,19.06
797,bethanien,3358416,92,76,-26.5,17.16,64.43,5.86
799,nuuk,3421319,40,92,64.17,-51.74,28.4,3.36
800,don benito,2518820,56,88,38.95,-5.86,51.92,15.03
803,progreso,3440963,20,94,-34.68,-56.22,68.0,5.82
804,necochea,3430443,0,63,-38.55,-58.74,64.79,10.0
809,cortez,5418104,1,2,37.35,-108.58,57.2,13.87
813,kavieng,2094342,12,99,-2.57,150.8,85.22,7.99
816,karratha,6620339,0,71,-20.74,116.85,82.34,4.63
819,bundaberg,2173323,92,100,-24.87,152.35,75.86,22.08
826,emba,146639,0,62,34.81,32.42,59.0,10.29
834,nizwa,286987,32,64,22.93,57.53,61.28,2.39
838,gilgit,1178338,48,100,35.92,74.31,30.59,0.16
841,aykhal,2027296,8,65,65.95,111.51,-1.1,2.73
842,beringovskiy,2126710,8,100,63.05,179.32,27.08,7.2
846,buraydah,107304,75,69,26.33,43.97,75.2,9.17
848,praia da vitoria,3372760,40,72,38.73,-27.07,60.8,12.01
850,quatre cocos,1106643,75,88,-20.21,57.76,80.6,8.05
851,iberia,3938531,8,93,-11.41,-69.49,75.86,2.39
852,concordia,3435261,88,92,-31.4,-58.02,68.66,1.95
853,vostok,2013279,56,47,46.45,135.83,25.28,5.19
859,lethbridge,6053154,40,79,49.69,-112.85,23.0,9.17
860,brcko,3203521,0,62,44.87,18.81,53.6,4.7
862,akdepe,601551,0,71,42.05,59.39,50.0,6.93
874,kirovskaya,548390,0,89,46.97,40.04,39.77,7.65
875,naze,2337542,20,88,5.43,7.07,77.0,3.85
879,wolsztyn,3081419,0,100,52.11,16.12,46.4,1.12
882,krasne,704277,0,65,49.91,24.61,46.4,4.47
885,yuza,1848016,75,93,39.05,139.95,48.2,2.24
886,mogadishu,53654,76,100,2.04,45.34,82.79,5.75
888,masalli,1846326,75,82,35.34,128.62,59.0,5.82
891,bindura,895061,64,70,-17.3,31.33,67.49,6.76
895,kalmunai,1242110,12,98,7.42,81.82,71.27,3.74
896,camaragibe,3403741,75,69,-8.02,-34.98,82.4,8.05
898,alibag,1279027,0,78,18.64,72.88,80.6,9.78
900,churapcha,2025241,12,55,62.0,132.43,9.53,7.76
903,rock sound,3571592,80,100,24.9,-76.2,74.96,11.79
904,mindelo,2739997,75,87,41.31,-8.72,55.4,10.29
905,noyabrsk,1496503,80,79,63.2,75.45,10.88,13.35
910,usinsk,863061,92,97,66.0,57.56,38.6,16.04
911,le port,3036965,0,57,42.87,1.37,42.56,4.41
913,ljungby,2694560,90,95,56.83,13.94,33.8,5.82
920,husavik,5961417,20,82,50.56,-96.99,21.41,4.41
922,chulym,1507679,0,61,55.09,80.97,1.61,6.98
924,neiafu,4032420,90,94,-18.65,-173.98,77.0,11.41
926,aripuana,3665202,12,87,-9.17,-60.63,78.47,2.73
927,leshukonskoye,535839,76,89,64.9,45.76,32.75,10.78
934,richards bay,962367,92,97,-28.77,32.06,71.0,4.07
935,taitung,1668295,75,77,22.76,121.15,69.8,5.82
938,kwinana,2068079,90,100,-32.25,115.77,66.2,8.05
940,roebourne,2062276,0,71,-20.77,117.15,82.34,4.63
950,cherskiy,2126199,0,73,68.75,161.3,36.35,4.74
954,kawambwa,176555,64,99,-9.8,29.07,64.7,3.06
956,sultanpur,1255491,0,63,26.26,82.07,72.44,5.64
962,san andres,1690438,0,100,13.32,122.68,79.46,7.65
964,fayaoue,2141305,88,100,-20.65,166.53,79.82,17.83
974,kathu,991664,88,93,-27.7,23.05,57.5,2.95
977,sabang,1691355,68,98,13.72,123.58,78.38,6.87
980,matay,352628,0,56,28.42,30.79,60.56,13.47
986,carnarvon,1014034,68,85,-30.97,22.13,59.48,3.18
993,lajas,3536640,88,65,22.41,-80.29,82.4,11.41
994,ngorongoro,151610,48,97,-3.24,35.49,58.85,2.62
999,hoquiam,5797693,90,66,46.98,-123.89,51.8,10.29
1000,ternate,1682474,75,88,14.29,120.72,78.8,1.12
1008,kibala,2425791,0,58,9.11,18.35,82.4,5.08
1010,zonguldak,737021,0,89,41.25,31.83,39.95,3.74
1011,dalvik,2702977,75,95,57.79,14.13,33.8,11.41
1014,sibolga,1213855,44,100,1.74,98.78,69.65,1.5
1015,strezhevoy,1490796,0,60,60.73,77.6,10.4,4.47
1016,kulu,206362,64,97,3.47,23.69,71.9,2.39
1017,lysva,532675,20,88,58.11,57.8,30.23,14.36
1023,vuktyl,470905,92,84,63.86,57.31,36.17,11.56
1025,diveyevo,566165,44,90,55.04,43.25,30.59,6.98
1027,shenjiamen,1795632,92,91,29.96,122.3,61.55,15.82
1028,tefe,3661944,40,94,-3.35,-64.71,77.0,5.82
1034,omboue,2396853,88,100,-1.57,9.26,81.71,1.95
1037,cabinda,2243271,76,100,-5.56,12.19,81.8,5.19
1039,petropavlovsk-kamchatskiy,2122104,75,74,53.05,158.65,30.2,15.66
1041,poronaysk,2121909,24,78,49.22,143.1,26.09,15.82
1042,kikwit,2314705,88,98,-5.04,18.82,70.19,3.62
1044,nemuro,2128975,88,91,43.32,145.57,37.43,7.65
1049,marsh harbour,3571913,48,100,26.54,-77.06,72.71,14.47
1055,tucumcari,5495360,1,19,35.17,-103.73,55.4,13.87
1056,beira,3119841,20,81,43.2,-8.36,48.2,5.82
1057,ahuimanu,5856516,75,74,21.44,-157.84,80.6,8.05
1059,sarangani,1687186,68,100,5.4,125.46,81.98,7.31
1064,ewa beach,5855051,75,74,21.32,-158.01,80.6,8.05
1065,york,2633352,40,81,53.96,-1.08,48.2,2.24
1066,falam,1326105,0,93,22.91,93.68,54.62,1.95
1069,gidam,1271215,0,90,18.98,81.4,63.26,2.73
1070,acapulco,3533462,5,69,16.86,-99.88,82.4,11.41
1073,ossora,2122389,92,98,59.24,163.07,32.3,16.49
1082,zemio,235826,36,91,5.02,25.13,71.0,3.51
1085,almaznyy,582447,20,88,48.03,40.04,35.99,5.3
1086,escanaba,4992232,90,92,45.75,-87.06,28.4,11.41
1092,new ulm,5039173,90,85,44.31,-94.46,28.4,26.4
1093,kungurtug,1501377,68,75,50.6,97.53,8.45,9.44
1097,vitim,2013375,32,73,59.44,112.57,18.44,3.85
1100,kamyshla,553271,8,93,54.11,52.14,34.55,13.58
1103,wai,1253013,0,91,17.95,73.89,61.01,2.39
1104,makakilo city,5850554,75,74,21.35,-158.09,80.6,8.05
1105,cullman,4057835,76,40,34.17,-86.84,86.0,5.82
1107,kysyl-syr,2021017,0,60,63.9,122.77,5.12,2.39
1114,asyut,359783,0,55,27.18,31.19,64.4,17.22
1119,hirara,1862505,75,83,24.8,125.28,71.6,8.05
1122,sobolevo,525426,92,90,54.43,31.9,31.94,9.1
1132,bandarbeyla,64814,92,100,9.49,50.81,79.82,6.31
1134,mhlume,934966,64,93,-26.03,31.81,66.2,3.36
1135,saurimo,145531,76,100,-9.66,20.4,65.78,2.95
1136,cabras,3670719,40,88,5.5,-75.6,62.6,3.36
1139,kingman,5301067,1,10,35.19,-114.05,84.2,4.7
1140,louga,2249222,0,100,15.62,-16.22,64.4,9.17
1144,strathmore,6158023,40,62,51.04,-113.4,26.6,11.41
1145,wamba,204318,100,97,2.14,27.99,69.11,2.28
1146,ostersund,2685750,0,58,63.18,14.64,30.2,11.41
1152,yayva,468560,12,86,59.33,57.26,29.96,14.03
1153,marshall,4243951,75,82,39.39,-87.69,69.8,16.11
1154,pontal do parana,3478424,75,88,-25.67,-48.51,64.4,5.82
1156,padang,1633419,88,100,-0.92,100.36,81.26,2.06
1159,ponta delgada,3372783,40,76,37.73,-25.67,55.4,5.82
1162,chabahar,1161724,0,97,25.29,60.65,77.12,10.0
1163,zhangye,1785036,24,70,38.94,100.46,38.51,19.51
1171,leningradskiy,2123814,32,100,69.38,178.42,18.71,25.66
1172,frederiksvaerk,2621910,90,100,55.97,12.02,41.0,10.29
1178,sinnamary,3380290,92,98,5.38,-52.96,79.55,7.87
1184,port hardy,6111862,90,70,50.7,-127.42,44.6,6.93
1186,bouafle,3031409,0,93,48.96,1.9,46.4,9.17
1187,sarkand,1519691,0,81,45.41,79.91,18.26,7.76
1190,volksrust,943032,92,100,-27.36,29.88,58.31,2.62
1193,sjenica,3190776,48,87,43.27,20.0,29.24,2.06
1195,honningsvag,779554,75,100,70.98,25.97,32.0,24.16
1206,bani,1695357,64,98,15.89,120.27,76.58,3.18
1207,port macquarie,2152659,40,88,-31.43,152.91,69.8,5.82
1213,xiongyue,2033630,0,28,40.18,122.12,38.96,13.69
1215,maunabo,4566208,75,74,18.01,-65.9,78.8,9.17
1218,ilo,3938415,0,91,-17.65,-71.34,64.25,3.62
1225,toamasina,1053384,40,94,-18.17,49.38,77.0,4.7
1227,puerto escondido,3520994,5,70,15.86,-97.07,84.2,11.41
1229,chumikan,2025256,76,56,54.72,135.31,25.01,14.7
1231,shenkursk,494884,88,80,62.11,42.91,30.95,13.02
1234,macomer,3174367,40,87,40.26,8.77,59.0,8.05
1235,cheremukhovo,466423,88,99,56.23,46.23,33.11,4.07
1236,ixtapa,4004293,0,42,20.71,-105.21,77.03,2.73
1240,margate,2158744,0,59,-43.03,147.26,60.8,9.17
1243,birjand,140463,0,23,32.86,59.22,51.8,4.7
1245,baruun-urt,2032614,0,35,46.68,113.28,20.06,12.24
1251,kilrush,2965260,75,100,51.96,-8.06,44.6,6.93
1255,saint-francois,2980080,0,87,46.42,3.91,46.4,5.82
1256,koutsouras,261814,0,99,35.03,25.95,60.65,4.97
1257,songjianghe,2034691,0,65,42.18,127.48,29.69,4.41
1259,villa del rosario,3665913,75,78,7.83,-72.47,77.0,2.24
1283,merritt island,4164092,1,57,28.54,-80.67,84.2,9.17
1287,hamilton,3573197,75,77,32.3,-64.78,69.8,5.82
1288,biala podlaska,776175,0,86,52.03,23.12,38.78,4.85
1291,avera,4231997,40,39,33.19,-82.53,86.0,4.7
1293,pocone,3453315,12,81,-16.26,-56.62,78.65,3.29
1297,ngaoundere,2224827,24,86,7.32,13.58,64.16,3.51
1299,pandan,1695555,56,100,11.72,122.09,79.64,13.24
1300,damietta,358048,40,72,31.42,31.81,64.4,9.17
1301,alofi,4036284,90,78,-19.06,-169.92,82.4,11.41
1309,ha giang,1581349,92,100,22.83,104.99,67.04,2.06
1315,langenburg,6049379,0,85,50.84,-101.7,14.39,5.75
1318,kulhudhuffushi,1337613,8,100,6.62,73.07,82.97,5.08
1319,salalah,286621,40,73,17.01,54.1,77.0,3.36
1322,sechura,3691954,0,68,-5.56,-80.82,75.41,11.01
1323,bowen,2174444,90,88,-20.01,148.25,73.4,13.87
1325,nguru,2328952,0,30,12.88,10.45,68.75,5.97
1326,palembang,1633070,92,98,-2.99,104.76,74.06,4.41
1332,jiangyou,1885823,76,78,31.78,104.73,60.38,3.29
1334,manzanillo,3547867,44,100,20.34,-77.12,78.29,2.62
1339,biak,1637001,68,100,-0.91,122.88,77.57,2.62
1342,koulikoro,2454530,12,16,12.86,-7.56,91.4,4.7
1344,wanning,3220813,75,58,48.64,13.53,55.4,5.82
1345,suntar,2015913,64,72,62.16,117.65,12.86,2.62
1346,kyshtovka,1501000,20,59,56.56,76.62,2.51,4.07
1347,vilhena,3924679,0,94,-12.74,-60.15,73.4,3.36
1349,hasaki,2112802,0,100,35.73,140.83,57.2,2.24
1351,ojinaga,3994469,0,7,29.56,-104.41,81.89,4.85
1354,dejen,339551,92,93,10.16,38.15,56.69,2.17
1356,sajoszoged,715941,0,92,47.95,21.0,43.19,3.74
1358,glasgow,2648579,92,86,55.86,-4.24,39.2,10.29
1361,zaton,690285,44,90,49.77,33.77,35.09,9.78
1366,hofn,2630299,0,100,64.25,-15.21,32.57,21.85
1367,sitka,4267710,0,27,37.17,-99.65,47.69,22.3
1370,lorengau,2092164,68,93,-2.02,147.27,84.68,11.68
1376,diffa,2445704,0,25,13.32,12.61,70.28,6.76
1378,mendeleyevo,527581,0,84,56.04,37.23,32.0,4.47
1380,bethalto,4233662,90,93,38.91,-90.04,48.2,29.97
1381,ballina,2966778,92,100,54.11,-9.15,37.16,14.03
1386,kirchzarten,2890328,0,58,47.97,7.96,57.2,4.7
1389,cassilandia,3466750,12,91,-19.11,-51.73,71.36,4.74
1392,kijang,1842966,75,82,35.24,129.21,59.0,5.82
1396,tongzi,1799686,44,79,28.78,105.09,67.58,5.08
1399,dumabato,1714212,80,100,16.32,121.7,71.9,1.61
1402,houston,4699066,20,54,29.76,-95.37,84.2,10.29
1404,roseburg,5749352,90,44,43.22,-123.34,57.2,2.95
1406,letlhakane,933535,8,62,-21.42,25.59,64.61,13.47
1412,puri,1635111,36,92,-7.54,112.45,73.79,4.18
1413,lazaro cardenas,3996234,40,15,28.39,-105.62,80.6,17.22
1414,nome,4732862,75,65,30.04,-94.42,84.2,11.41
1416,vila do maio,3374120,20,68,15.13,-23.22,69.8,13.87
1420,namatanai,2090021,0,93,-3.66,152.44,85.49,7.99
1424,rangapara,1258501,0,53,26.82,92.69,60.92,3.62
1432,harper,4696310,1,65,30.3,-99.24,82.4,8.05
1433,srednekolymsk,2121025,44,87,67.46,153.71,37.25,3.4
1437,lamar,5427957,1,9,38.09,-102.62,53.6,16.11
1438,rio novo do sul,3451107,88,100,-20.86,-40.94,73.7,7.43
1439,aguada de pasajeros,3569546,68,65,22.38,-80.85,82.4,11.41
1446,belle fourche,5762718,1,67,44.67,-103.85,26.6,6.93
1452,naliya,1262062,8,96,23.26,68.83,70.19,5.97
1455,cache creek,5913049,75,42,50.81,-121.33,46.4,10.29
1456,maragogi,3395458,92,95,-9.01,-35.22,77.03,5.3
1457,guerrero negro,4021858,0,65,27.97,-114.04,65.6,12.01
1466,hobyo,57000,80,89,5.35,48.53,80.09,8.88
1467,el banco,3684917,32,81,9.0,-73.97,80.18,2.95
1472,russas,3390160,24,90,-4.93,-37.97,77.75,9.66
1475,atambua,1651103,32,100,-9.11,124.89,79.55,0.6
1478,arshan,75518,0,87,14.32,46.95,54.35,3.18
1483,craig,5576064,1,14,40.52,-107.55,42.8,14.99
1484,batagay,2027044,24,79,67.65,134.64,18.26,5.97
1485,linjiang,2036069,0,65,41.81,126.91,29.69,4.41
1491,ichinoseki,2112656,92,86,38.93,141.13,52.82,3.18
1496,egvekinot,4031742,32,95,66.32,-179.17,31.04,3.29
1506,eureka,5563397,1,71,40.8,-124.16,55.4,9.17
1509,morant bay,3489440,20,74,17.88,-76.41,82.4,9.17
1518,havre-saint-pierre,5972291,90,58,50.23,-63.6,30.2,12.75
1519,sistranda,3139597,0,55,63.73,8.83,35.6,19.46
1521,vila,3164565,75,100,45.18,8.4,46.4,8.05
1529,bandrele,1090397,76,78,-12.91,45.19,82.4,4.7
1530,francistown,933778,0,64,-21.17,27.5,65.51,11.45
1533,lake havasu city,5301388,1,5,34.47,-114.34,84.2,14.99
1536,sampit,1628884,36,97,-2.54,112.95,75.23,4.63
1544,toora-khem,1489401,64,61,52.47,96.11,11.42,6.64
1552,arrifes,3373329,40,76,37.77,-25.7,55.4,5.82
1553,otradnoye,513898,20,63,59.77,30.8,30.2,4.47
1562,dobryanka,565778,0,47,58.45,56.42,37.4,11.18
1563,launceston,2160517,0,100,-41.43,147.14,50.0,4.7
1569,melbourne,2158177,20,63,-37.81,144.96,60.8,6.93
1570,oktyabrskiy,515873,0,86,55.61,37.97,32.0,4.47
1573,sao gabriel da cachoeira,3662342,56,95,-0.13,-67.09,74.15,0.94
1582,mareeba,2158767,0,69,-16.99,145.42,77.0,4.7
1587,posadas,3429886,20,65,-27.37,-55.89,78.8,5.82
1588,maun,933366,12,61,-19.99,23.42,68.21,5.75
1592,svetlogorsk,584051,90,92,53.14,59.15,24.8,11.18
1593,romans-sur-isere,2983011,0,71,45.05,5.06,51.8,6.93
1605,ulu-telyak,479198,0,78,54.91,56.98,31.49,6.42
1608,porbandar,1259395,0,91,21.64,69.61,73.34,8.66
1612,cervo,3469169,44,96,-22.19,-46.24,63.08,2.73
1613,buala,2109528,48,88,-8.15,159.59,84.68,7.2
1618,nueva gerona,3545867,0,84,21.88,-82.8,78.65,6.42
1621,darnah,87205,8,99,32.77,22.64,62.63,5.19
1623,seddon,6243926,0,66,-41.67,174.07,67.31,7.76
1631,raudeberg,3146487,90,74,61.99,5.14,33.8,13.87
1632,batagay-alyta,2027042,80,83,67.8,130.41,9.89,6.53
1635,yeppoon,2142316,75,88,-23.13,150.74,71.6,12.75
1640,ust-kalmanka,1488200,24,64,52.12,83.31,9.08,5.19
1644,petropavlovka,2017979,92,72,50.61,105.32,26.81,5.41
